{
  "items": [
    {
      "fields": {
        "id": "1",
        "shop_name": "西友新北習志野店",
        "latitude": 35.7235532,
        "longitude": 140.0410907,
        "phone": "047-463-1221",
        "address": "千葉県船橋市習志野台１丁目３５−１",
        "category": "supermarket",
        "image": {
          "fields": {
            "file": {
              "url": "./images/1.jpeg"
            }
          }
        }
      }
    },
    {
      "fields": {
        "id": "2",
        "shop_name": "西友北習志野店",
        "latitude": 35.7227256,
        "longitude": 140.0446264,
        "phone": "047-466-1131",
        "address": "千葉県船橋市習志野台２丁目４９−１",
        "category": "supermarket",
        "image": {
          "fields": {
            "file": {
              "url": "./images/2.jpeg"
            }
          }
        }
      }
    },
    {
      "fields": {
        "id": "3",
        "shop_name": "マルエツ習志野店",
        "latitude": 35.7153522,
        "longitude": 140.0436994,
        "phone": "047-462-1321",
        "address": "千葉県船橋市習志野台４丁目２−１３",
        "category": "supermarket",
        "image": {
          "fields": {
            "file": {
              "url": "./images/3.jpeg"
            }
          }
        }
      }
    },
    {
      "fields": {
        "id": "4",
        "shop_name": "ビッグ・エー船橋習志野台店",
        "latitude": 35.7161745,
        "longitude": 140.0463197,
        "phone": "047-468-3018",
        "address": "千葉県船橋市習志野台４丁目４６−１４",
        "category": "supermarket",
        "image": {
          "fields": {
            "file": {
              "url": "./images/4.jpeg"
            }
          }
        }
      }
    },
    {
      "fields": {
        "id": "5",
        "shop_name": "渡辺ストアー",
        "latitude": 35.7146535,
        "longitude": 140.0436881,
        "phone": "047-464-3312",
        "address": "千葉県船橋市薬円台５丁目３２−８",
        "category": "supermarket",
        "image": {
          "fields": {
            "file": {
              "url": "./images/5.jpeg"
            }
          }
        }
      }
    },
    {
      "fields": {
        "id": "6",
        "shop_name": "ヨークマート習志野台店",
        "latitude": 35.7191919,
        "longitude": 140.0504228,
        "phone": "047-467-1541",
        "address": "千葉県船橋市習志野台３丁目６−１",
        "category": "supermarket",
        "image": {
          "fields": {
            "file": {
              "url": "./images/6.jpeg"
            }
          }
        }
      }
    },
    {
      "fields": {
        "id": "7",
        "shop_name": "イオン高根木戸店",
        "latitude": 35.7271013,
        "longitude": 140.03529,
        "phone": "047-464-7711",
        "address": "千葉県船橋市習志野台１丁目１−３",
        "category": "supermarket",
        "image": {
          "fields": {
            "file": {
              "url": "./images/7.jpeg"
            }
          }
        }
      }
    },
    {
      "fields": {
        "id": "8",
        "shop_name": "新鮮館魚次　習志野台６丁目店",
        "latitude": 35.7209327,
        "longitude": 140.0523241,
        "phone": "047-404-9880",
        "address": "千葉県船橋市習志野台６丁目２５−２１",
        "category": "supermarket",
        "image": {
          "fields": {
           
            "file": {
              "url": "./images/8.jpeg"
            }
          }
        }
      }
    },
    {
      "fields": {
        "id": "9",
        "shop_name": "西友薬円台店",
        "latitude": 35.7129553,
        "longitude": 140.0374014,
        "phone": "047-466-2433",
        "address": "千葉県船橋市薬円台６丁目６−７",
        "category": "supermarket",
        "image": {
          "fields": {
            "file": {
              "url": "./images/9.jpeg"
            }
          }
        }
      }
    },
    {
      "fields": {
        "id": "10",
        "shop_name": "ビッグ・エー船橋高根台店",
        "latitude": 35.7317579,
        "longitude": 140.040863,
        "phone": "047-461-8874",
        "address": "千葉県船橋市高根台３丁目３−４ 高根台東ＳＣ",
        "category": "supermarket",
        "image": {
          "fields": {
            "file": {
              "url": "./images/10.jpeg"
            }
          }
        }
      }
    },
    {
      "fields": {
        "id": "11",
        "shop_name": "マックスバリュ習志野台店",
        "latitude": 35.7169234,
        "longitude": 140.0542626,
        "phone": "047-466-6101",
        "address": "千葉県船橋市習志野台５丁目３９−４",
        "category": "supermarket",
        "image": {
          "fields": {
            "file": {
              "url": "./images/11.jpeg"
            }
          }
        }
      }
    },
    {
      "fields": {
        "id": "12",
        "shop_name": "ミニコープ松が丘店",
        "latitude": 35.7323946,
        "longitude": 140.0463949,
        "phone": "047-467-6668",
        "address": "千葉県船橋市松が丘４丁目２４−１",
        "category": "supermarket",
        "image": {
          "fields": {
            "file": {
              "url": "./images/12.jpeg"
            }
          }
        }
      }
    },
    {
      "fields": {
        "id": "13",
        "shop_name": "コープ薬円台店",
        "latitude": 35.7098209,
        "longitude": 140.0400585,
        "phone": "047-496-2440",
        "address": "千葉県船橋市薬円台５丁目１９−１",
        "category": "supermarket",
        "image": {
          "fields": {
            "file": {
              "url": "./images/13.jpeg"
            }
          }
        }
      }
    },
    {
      "fields": {
        "id": "14",
        "shop_name": "リブレ京成高根台店",
        "latitude": 35.730106,
        "longitude": 140.0309665,
        "phone": "047-466-3151",
        "address": "千葉県船橋市高根台１丁目２−１",
        "category": "supermarket",
        "image": {
          "fields": {
            "file": {
              "url": "./images/14.jpeg"
            }
          }
        }
      }
    },
    {
      "fields": {
        "id": "15",
        "shop_name": "エコ・ピア本部事務所",
        "latitude": 35.7090976,
        "longitude": 140.0380665,
        "phone": "047-463-1110",
        "address": "千葉県船橋市薬円台５丁目２−５",
        "category": "supermarket",
        "image": {
          "fields": {
            "file": {
              "url": "./images/15.jpeg"
            }
          }
        }
      }
    },
    {
      "fields": {
        "id": "16",
        "shop_name": "フードスクエアカスミ高根台店",
        "latitude": 35.7311869,
        "longitude": 140.0320369,
        "phone": "047-496-5581",
        "address": "千葉県船橋市高根台１丁目",
        "category": "supermarket",
        "image": {
          "fields": {
            "file": {
              "url": "./images/16.jpeg"
            }
          }
        }
      }
    },
    {
      "fields": {
        "id": "17",
        "shop_name": "マルエツ高根台店",
        "latitude": 35.7355169,
        "longitude": 140.0406986,
        "phone": "047-462-8051",
        "address": "千葉県船橋市松が丘１丁目３２−１５ マルエツ高根台店",
        "category": "supermarket",
        "image": {
          "fields": {
            "file": {
              "url": "./images/17.jpeg"
            }
          }
        }
      }
    },
    {
      "fields": {
        "id": "18",
        "shop_name": "ビッグ・エー船橋松が丘店",
        "latitude": 35.7355319,
        "longitude": 140.0490869,
        "phone": "047-461-6613",
        "address": "千葉県船橋市松が丘３丁目４８−２８",
        "category": "supermarket",
        "image": {
          "fields": {
            "file": {
              "url": "./images/18.jpeg"
            }
          }
        }
      }
    },
    {
      "fields": {
        "id": "19",
        "shop_name": "マミーマート船橋日大前店",
        "latitude": 35.7264112,
        "longitude": 140.0609233,
        "phone": "047-496-0811",
        "address": "千葉県船橋市坪井東３丁目６−１",
        "category": "supermarket",
        "image": {
          "fields": {
            "file": {
              "url": "./images/19.jpeg"
            }
          }
        }
      }
    },
    {
      "fields": {
        "id": "20",
        "shop_name": "新鮮市場マルエイ薬円台店",
        "latitude": 35.701082,
        "longitude": 140.5090968,
        "phone": "047-490-1212",
        "address": "千葉県船橋市新７３",
        "category": "supermarket",
        "image": {
          "fields": {
            "file": {
              "url": "./images/20.jpeg"
            }
          }
        }
      }
    },
    {
      "fields": {
        "id": "21",
        "shop_name": "ビッグ・エー船橋田喜野井店",
        "latitude": 35.7051036,
        "longitude": 140.0480359,
        "phone": "047-402-1578",
        "address": "千葉県船橋市田喜野井７丁目１６−１０",
        "category": "supermarket",
        "image": {
          "fields": {
            "file": {
              "url": "./images/21.jpeg"
            }
          }
        }
      }
    },
    {
      "fields": {
        "id": "22",
        "shop_name": "ミニコープ芝山店",
        "latitude": 35.7206384,
        "longitude": 140.0202181,
        "phone": "047-466-7272",
        "address": "千葉県船橋市芝山４丁目１−１",
        "category": "supermarket",
        "image": {
          "fields": {
            "file": {
              "url": "./images/22.jpeg"
            }
          }
        }
      }
    },
    {
      "fields": {
        "id": "23",
        "shop_name": "マミーマート飯山満駅前店",
        "latitude": 35.7152731,
        "longitude": 140.0212808,
        "phone": "047-496-1210",
        "address": "千葉県船橋市芝山３丁目１２−５１ マミーマート飯山満駅前店内2F",
        "category": "supermarket",
        "image": {
          "fields": {
            "file": {
              "url": "./images/23.jpeg"
            }
          }
        }
      }
    },
    {
      "fields": {
        "id": "25",
        "shop_name": "リブレ京成高根グリーンハイツ店",
        "latitude": 35.728553,
        "longitude": 140.016838,
        "phone": "047-448-5407",
        "address": "千葉県船橋市緑台２丁目６−１３",
        "category": "supermarket",
        "image": {
          "fields": {
            "file": {
              "url": "./images/25.jpeg"
            }
          }
        }
      }
    },
    {
      "fields": {
        "id": "26",
        "shop_name": "マルエツ金杉店",
        "latitude": 35.7354099,
        "longitude": 140.018016,
        "phone": "047-449-6251",
        "address": "千葉県船橋市金杉７丁目５−１",
        "category": "supermarket",
        "image": {
          "fields": {
            "file": {
              "url": "./images/26.jpeg"
            }
          }
        }
      }
    },
    {
      "fields": {
        "id": "27",
        "shop_name": "トップマート津田沼店",
        "latitude": 35.6989054,
        "longitude": 140.0310453,
        "phone": "047-471-7112",
        "address": "千葉県船橋市三咲５丁目３３−３",
        "category": "supermarket",
        "image": {
          "fields": {
            "file": {
              "url": "./images/27.jpeg"
            }
          }
        }
      }
    },
    {
      "fields": {
        "id": "28",
        "shop_name": "ヤオコー八千代緑が丘店",
        "latitude": 35.7354362,
        "longitude": 140.0677838,
        "phone": "047-450-7811",
        "address": "千葉県船橋市緑が丘２丁目1番3",
        "category": "supermarket",
        "image": {
          "fields": {
            "file": {
              "url": "./images/28.jpeg"
            }
          }
        }
      }
    },
    {
      "fields": {
        "id": "29",
        "shop_name": "マルエツ東習志野店",
        "latitude": 35.7003651,
        "longitude": 140.0600929,
        "phone": "047-479-5793",
        "address": "千葉県船橋市習志野５丁目２−１",
        "category": "supermarket",
        "image": {
          "fields": {
            "file": {
              "url": "./images/29.jpeg"
            }
          }
        }
      }
    },
    {
      "fields": {
        "id": "30",
        "shop_name": "ワイズマート飯山満店",
        "latitude": 35.705511,
        "longitude": 140.0171227,
        "phone": "047-464-3821",
        "address": "千葉県船橋市飯山満町２丁目４１０−３",
        "category": "supermarket",
        "image": {
          "fields": {
            "file": {
              "url": "./images/30.jpeg"
            }
          }
        }
      }
    },
    {
      "fields": {
        "id": "31",
        "shop_name": "ベルク八千代緑が丘店",
        "latitude": 35.7235964,
        "longitude": 140.0738319,
        "address": "千葉県八千代市大和田新田９９２−１",
        "phone": "047-480-4100",
        "category": "supermarket",
        "image": { "fields": { "file": { "url": "./images/31.jpeg" } } }
      }
    },
    {
      "fields": {
        "id": "32",
        "shop_name": "イオン八千代緑が丘店",
        "latitude": 35.7279014,
        "longitude": 140.0730583,
        "address": "千葉県八千代市緑が丘２丁目１８５１",
        "phone": "047-458-5211",
        "category": "supermarket",
        "image": { "fields": { "file": { "url": "./images/32.jpeg" } } }
      }
    },
    {
      "fields": {
        "id": "33",
        "shop_name": "リブレ京成アルビス前原店",
        "latitude": 35.7010747,
        "longitude": 140.0217432,
        "address": "千葉県船橋市前原東２丁目２３−２３番１号",
        "phone": "047-403-6911",
        "category": "supermarket",
        "image": { "fields": { "file": { "url": "./images/33.jpeg" } } }
      }
    },
    {
      "fields": {
        "id": "34",
        "shop_name": "まちの駅",
        "latitude": 35.7293434,
        "longitude": 140.0730791,
        "address": "千葉県八千代市緑が丘西４丁目２−８",
        "phone": "047-458-4129",
        "category": "supermarket",
        "image": { "fields": { "file": { "url": "./images/34.jpeg" } } }
      }
    },
    {
      "fields": {
        "id": "35",
        "shop_name": "タイヨー八千代店",
        "latitude": 35.722736,
        "longitude": 140.0746915,
        "address": "千葉県船橋市習志野５丁目２−１",
        "phone": "047-489-5511",
        "category": "supermarket",
        "image": { "fields": { "file": { "url": "./images/35.jpeg" } } }
      }
    },
    {
      "fields": {
        "id": "36",
        "shop_name": "ヤオコー船橋三山店",
        "latitude": 35.6974649,
        "longitude": 140.0567458,
        "address": "千葉県八千代市緑が丘西２丁目１８５１",
        "phone": "047-455-7811",
        "category": "supermarket",
        "image": { "fields": { "file": { "url": "./images/36.jpeg" } } }
      }
    },
    {
      "fields": {
        "id": "37",
        "shop_name": "メガセンタートライアル八千代店",
        "latitude": 35.7336555,
        "longitude": 140.0725266,
        "address": "047-463-1110",
        "phone": "千葉県船橋市藤原7-46-1",
        "category": "supermarket",
        "image": { "fields": { "file": { "url": "./images/37.jpeg" } } }
      }
    },
    {
      "fields": {
        "id": "38",
        "shop_name": "有限会社大野ストアー",
        "latitude": 35.7384964,
        "longitude": 140.0141168,
        "address": "千葉県船橋市三咲２丁目７−１２",
        "phone": "047-449-3770",
        "category": "supermarket",
        "image": { "fields": { "file": { "url": "./images/38.jpeg" } } }
      }
    },
    {
      "fields": {
        "id": "39",
        "shop_name": "ヤオコー船橋三咲店",
        "latitude": 35.7480595,
        "longitude": 140.0291343,
        "address": "千葉県習志野市東習志野６丁目７ 千葉県習志野市東習志野6-7-8 イオン東習志野ショッピングセンター1F",
        "phone": "047-440-3811",
        "category": "supermarket",
        "image": { "fields": { "file": { "url": "./images/39.jpeg" } } }
      }
    },
    {
      "fields": {
        "id": "40",
        "shop_name": "オーケー八千代緑が丘店",
        "latitude": 35.7300124,
        "longitude": 140.0755113,
        "address": "千葉県船橋市三山９丁目９−３１",
        "phone": "047-409-7035",
        "category": "supermarket",
        "image": { "fields": { "file": { "url": "./images/40.jpeg" } } }
      }
    },
    {
      "fields": {
        "id": "41",
        "shop_name": "マックスバリュ東習志野店",
        "latitude": 35.6992771,
        "longitude": 140.0668404,
        "address": "千葉県習志野市大久保３丁目１２−１７",
        "phone": "047-455-6511",
        "category": "supermarket",
        "image": { "fields": { "file": { "url": "./images/41.jpeg" } }
      }
    }},
    {
          "fields": {
            "id": "42",
            "shop_name": "マルエツ船橋三山店",
            "latitude": 35.6958087,
            "longitude": 140.0617388,
            "phone": "047-403-1120",
            "address": "千葉県船橋市三咲５丁目３３−３",
            "category": "supermarket",
            "image": { "fields": { "file": { "url": "./images/42.jpeg" } } }
          }
        },
        {
          "fields": {
            "id": "43",
            "shop_name": "ビッグ・エー習志野大久保店",
            "latitude": 35.6912159,
            "longitude": 140.0505258,
            "phone": "047-470-3480",
            "address": "千葉県習志野市藤崎２丁目９−２０ 三協コーポ",
            "category": "supermarket",
            "image": { "fields": { "file": { "url": "./images/43.jpeg" } } }
          }
        },
        {
          "fields": {
            "id": "44",
            "shop_name": "リブレ京成三咲店",
            "latitude": 35.7508663,
            "longitude": 140.0286351,
            "phone": "047-447-5886",
            "address": "千葉県習志野市東習志野７丁目１−１４６",
            "category": "supermarket",
            "image": { "fields": { "file": { "url": "./images/44.jpeg" } } }
          }
        },
        {
          "fields": {
            "id": "45",
            "shop_name": "フレッシュワンたくぼ",
            "latitude": 35.6897431,
            "longitude": 140.0316511,
            "phone": "047-471-2505",
            "address": "千葉県習志野市津田沼１丁目２３−１ 店 ２Ｆ",
            "category": "supermarket",
            "image": { "fields": { "file": { "url": "./images/45.jpeg" } } }
          }
        },
        {
          "fields": {
            "id": "46",
            "shop_name": "フードスクエアカスミ東習志野店",
            "latitude": 35.6975189,
            "longitude": 140.0697608,
            "phone": "047-478-3721",
            "address": "千葉県習志野市津田沼１丁目２３−１",
            "category": "supermarket",
            "image": { "fields": { "file": { "url": "./images/46.jpeg" } } }
          }
        },
        {
          "fields": {
            "id": "47",
            "shop_name": "イオン津田沼ショッピングセンター",
            "latitude": 35.6903076,
            "longitude": 140.0250402,
            "phone": "047-455-6000",
            "address": "千葉県習志野市大久保１丁目１１−２０",
            "category": "supermarket",
            "image": { "fields": { "file": { "url": "./images/47.jpeg" } } }
          }
        },
        {
          "fields": {
            "id": "48",
            "shop_name": "イオン津田沼店",
            "latitude": 35.6903001,
            "longitude": 140.0246839,
            "phone": "047-455-6000",
            "address": "千葉県習志野市津田沼１丁目１０−３０",
            "category": "supermarket",
            "image": { "fields": { "file": { "url": "./images/48.jpeg" } } }
          }
        },
        {
          "fields": {
            "id": "49",
            "shop_name": "マルエツ大久保駅前店",
            "latitude": 35.6871588,
            "longitude": 140.0458935,
            "phone": "047-476-2111",
            "address": "千葉県習志野市津田沼１丁目３ 習志野市津田沼１−３−１ ミーナ津田沼 4F",
            "category": "supermarket",
            "image": { "fields": { "file": { "url": "./images/49.jpeg" } } }
          }
        },
        {
          "fields": {
            "id": "50",
            "shop_name": "イトーヨーカドー津田沼店",
            "latitude": 35.6897707,
            "longitude": 140.0238128,
            "phone": "047-479-3111",
            "address": "千葉県習志野市本大久保１丁目５−１４",
            "category": "supermarket",
            "image": { "fields": { "file": { "url": "./images/50.jpeg" } } }
          }
        },
        {
          "fields": {
            "id": "51",
            "shop_name": "河内屋　津田沼店",
            "latitude": 35.6897922,
            "longitude": 140.0228855,
            "phone": "047-476-6151",
            "address": "千葉県習志野市薬円台２丁目９−３６",
            "category": "supermarket",
            "image": { "fields": { "file": { "url": "./images/51.jpeg" } } }
          }
        },
            {
              "fields": {
                "id": "52",
                "shop_name": "アコレ　本大久保１丁目店",
                "latitude": 35.6861133,
                "longitude": 140.0464055,
                "phone": "047-403-9001",
                "address": "千葉県習志野市花島３丁目２−７",
                "category": "supermarket",
                "image": { "fields": { "file": { "url": "./images/52.jpeg" } } }
              }
            },
            {
              "fields": {
                "id": "53",
                "shop_name": "船橋中学校",
                "latitude": 35.7087956,
                "longitude": 139.9866713,
                "phone": "047-422-8121",
                "address": "千葉県船橋市夏見2-11-1",
                "category": "localgovernment",
                "image": { "fields": { "file": { "url": "./images/53.jpeg" } } }
              }
            },
            {
              "fields": {
                "id": "54",
                "shop_name": "湊中学校",
                "latitude": 35.6902635,
                "longitude": 139.9795171,
                "phone": "047-431-5986",
                "address": "千葉県船橋市日の出1-1-2",
                "category": "localgovernment",
                "image": { "fields": { "file": { "url": "./images/54.jpeg" } } }
              }
            },
            {
              "fields": {
                "id": "55",
                "shop_name": "宮本中学校",
                "latitude": 35.69467,
                "longitude": 140.0014282,
                "phone": "047-422-8127",
                "address": "千葉県船橋市東船橋7-8-1",
                "category": "localgovernment",
                "image": { "fields": { "file": { "url": "./images/55.jpeg" } } }
              }
            },
            {
              "fields": {
                "id": "56",
                "shop_name": "若松中学校",
                "latitude": 35.6771308,
                "longitude": 139.993363,
                "phone": "047-431-1870",
                "address": "千葉県船橋市若松3-2-3",
                "category": "localgovernment",
                "image": { "fields": { "file": { "url": "./images/56.jpeg" } } }
              }
            },
            {
              "fields": {
                "id": "57",
                "shop_name": "海神中学校",
                "latitude": 35.7103798,
                "longitude": 139.9760705,
                "phone": "047-431-3074",
                "address": "千葉県船橋市海神4-27-1",
                "category": "localgovernment",
                "image": { "fields": { "file": { "url": "./images/57.jpeg" } } }
              }
            },
            {
              "fields": {
                "id": "58",
                "shop_name": "葛飾中学校",
                "latitude": 35.7136062,
                "longitude": 139.960804,
                "phone": "047-431-2692",
                "address": "千葉県船橋市印内1-5-1",
                "category": "localgovernment",
                "image": { "fields": { "file": { "url": "./images/58.jpeg" } } }
              }
            },
            {
              "fields": {
                "id": "59",
                "shop_name": "行田中学校",
                "latitude": 35.7209518,
                "longitude": 139.9701398,
                "phone": "047-439-2118",
                "address": "千葉県船橋市行田3-6-1",
                "category": "localgovernment",
                "image": { "fields": { "file": { "url": "./images/59.jpeg" } } }
              }
            },
            {
              "fields": {
                "id": "60",
                "shop_name": "法田中学校",
                "latitude": 35.7445742,
                "longitude": 139.9846572,
                "phone": "047-438-3026",
                "address": "千葉県船橋市藤原7-46-1",
                "category": "localgovernment",
                "image": { "fields": { "file": { "url": "./images/60.jpeg" } } }
              }
            },
            {
              "fields": {
                "id": "61",
                "shop_name": "旭中学校",
                "latitude": 35.73593,
                "longitude": 139.9873727,
                "phone": "047-439-5710",
                "address": "千葉県船橋市旭町2-23-1",
                "category": "localgovernment",
                "image": { "fields": { "file": { "url": "./images/61.jpeg" } } }
              }
            },
            {
              "fields": {
                "id": "62",
                "shop_name": "御滝中学校",
                "latitude": 35.7378072,
                "longitude": 140.0179232,
                "phone": "047-448-3102",
                "address": "千葉県船橋市金杉6-5-1",
                "category": "localgovernment",
                "image": { "fields": { "file": { "url": "./images/62.jpeg" } } }
              }
            },
                {
                  "fields": {
                    "id": "63",
                    "shop_name": "高根中学校",
                    "latitude": 35.726694,
                    "longitude": 140.0225257,
                    "phone": "047-464-3811",
                    "address": "千葉県船橋市新高根1-17-2",
                    "category": "localgovernment",
                    "image": { "fields": { "file": { "url": "./images/63.jpeg" } } }
                  }
                },
                {
                  "fields": {
                    "id": "64",
                    "shop_name": "八木が谷中学校",
                    "latitude": 35.7596546,
                    "longitude": 140.0324822,
                    "phone": "047-447-1455",
                    "address": "千葉県船橋市八木が谷2-9-1",
                    "category": "localgovernment",
                    "image": { "fields": { "file": { "url": "./images/64.jpeg" } } }
                  }
                },
                {
                  "fields": {
                    "id": "65",
                    "shop_name": "前原中学校",
                    "latitude": 35.7038053,
                    "longitude": 140.0177527,
                    "phone": "047-478-6831",
                    "address": "千葉県船橋市中野木2-33-1",
                    "category": "localgovernment",
                    "image": { "fields": { "file": { "url": "./images/65.jpeg" } } }
                  }
                },
                {
                  "fields": {
                    "id": "66",
                    "shop_name": "二宮中学校",
                    "latitude": 35.7041437,
                    "longitude": 140.0340767,
                    "phone": "047-466-2453",
                    "address": "千葉県船橋市滝台1-2-1",
                    "category": "localgovernment",
                    "image": { "fields": { "file": { "url": "./images/66.jpeg" } } }
                  }
                },
                {
                  "fields": {
                    "id": "67",
                    "shop_name": "飯山満中学校",
                    "latitude": 35.7117106,
                    "longitude": 140.017861,
                    "phone": "047-422-0088",
                    "address": "千葉県船橋市飯山満町1-946-1",
                    "category": "localgovernment",
                    "image": { "fields": { "file": { "url": "./images/67.jpeg" } } }
                  }
                },
                {
                  "fields": {
                    "id": "68",
                    "shop_name": "芝山中学校",
                    "latitude": 35.7161357,
                    "longitude": 140.0198381,
                    "phone": "047-464-3448",
                    "address": "千葉県船橋市芝山1-40-11",
                    "category": "localgovernment",
                    "image": { "fields": { "file": { "url": "./images/68.jpeg" } } }
                  }
                },
                {
                  "fields": {
                    "id": "69",
                    "shop_name": "七林中学校",
                    "latitude": 35.7165277,
                    "longitude": 140.0368145,
                    "phone": "047-464-7687",
                    "address": "千葉県船橋市七林町130",
                    "category": "localgovernment",
                    "image": { "fields": { "file": { "url": "./images/69.jpeg" } } }
                  }
                },
                {
                  "fields": {
                    "id": "70",
                    "shop_name": "三田中学校",
                    "latitude": 35.6988977,
                    "longitude": 140.0450673,
                    "phone": "047-477-0311",
                    "address": "千葉県船橋市田喜野井2-24-1",
                    "category": "localgovernment",
                    "image": { "fields": { "file": { "url": "./images/70.jpeg" } } }
                  }
                },
                {
                  "fields": {
                    "id": "71",
                    "shop_name": "三山中学校",
                    "latitude": 35.701697,
                    "longitude": 140.057347,
                    "phone": "047-479-3000",
                    "address": "千葉県船橋市三山6-26-1",
                    "category": "localgovernment",
                    "image": { "fields": { "file": { "url": "./images/71.jpeg" } } }
                  }
                },
                {
                  "fields": {
                    "id": "72",
                    "shop_name": "高根台中学校",
                    "latitude": 35.7311743,
                    "longitude": 140.0431932,
                    "phone": "047-466-1710",
                    "address": "千葉県船橋市高根台3-3-1",
                    "category": "localgovernment",
                    "image": { "fields": { "file": { "url": "./images/72.jpeg" } } }
                  }
                },
                {
                  "fields": {
                    "id": "73",
                    "shop_name": "習志野台中学校",
                    "latitude": 35.7219458,
                    "longitude": 140.0544878,
                    "phone": "047-466-1310",
                    "address": "千葉県船橋市習志野台6-23-1",
                    "category": "localgovernment",
                    "image": { "fields": { "file": { "url": "./images/73.jpeg" } } }
                  }
                },
                  {

                        "fields": {
                          "id": "74",
                          "shop_name": "古和釜中学校",
                          "latitude": 35.7380767,
                          "longitude": 140.0495324,
                          "phone": "047-464-2331",
                          "address": "千葉県船橋市松が丘3-69-1",
                          "category": "localgovernment",
                          "image": { "fields": { "file": { "url": "./images/74.jpeg" } } }
                        }
                      },
                      {
                        "fields": {
                          "id": "75",
                          "shop_name": "坪井中学校",
                          "latitude": 35.7302335,
                          "longitude": 140.0556014,
                          "phone": "047-466-3104",
                          "address": "千葉県船橋市坪井東1-24-1",
                          "category": "localgovernment",
                          "image": { "fields": { "file": { "url": "./images/75.jpeg" } } }
                        }
                      },
                      {
                        "fields": {
                          "id": "76",
                          "shop_name": "大穴中学校",
                          "latitude": 35.741293,
                          "longitude": 140.0435141,
                          "phone": "047-462-3117",
                          "address": "千葉県船橋市大穴南3-19-2",
                          "category": "localgovernment",
                          "image": { "fields": { "file": { "url": "./images/76.jpeg" } } }
                        }
                      },
                      {
                        "fields": {
                          "id": "77",
                          "shop_name": "豊富中学校",
                          "latitude": 35.7631061,
                          "longitude": 140.0635572,
                          "phone": "047-457-2030",
                          "address": "千葉県船橋市豊富町12",
                          "category": "localgovernment",
                          "image": { "fields": { "file": { "url": "./images/77.jpeg" } } }
                        }
                      },
                      {
                        "fields": {
                          "id": "78",
                          "shop_name": "小室中学校",
                          "latitude": 35.7936659,
                          "longitude": 140.0748361,
                          "phone": "047-457-1865",
                          "address": "千葉県船橋市小室町898",
                          "category": "localgovernment",
                          "image": { "fields": { "file": { "url": "./images/78.jpeg" } } }
                        }
                      }
                    ]
                  }
                  